[{"name":"'o fiore mio pizze di strada","filters":["vegan friendly","pizza al taglio"],"tags":[],"coordinates":{"latitude":44.4941422,"longitude":11.3366421}},{"tags":[],"name":"a casa mia","coordinates":{"latitude":44.50291,"longitude":11.333568},"filters":[]},{"tags":[],"filters":["vegan friendly"],"coordinates":{"latitude":44.5029873,"longitude":11.3335646},"name":"a casa mia bistrot"},{"tags":[],"name":"alchemillabio bologna","coordinates":{"latitude":44.500479,"longitude":11.3509879},"filters":["vegan friendly"]},{"name":"all'osteria bottega","filters":["da provare"],"tags":[],"coordinates":{"latitude":44.4910889,"longitude":11.3327222}},{"name":"antica trattoria del ragno","filters":["trattoria"],"tags":[],"coordinates":{"latitude":44.4785051,"longitude":11.3654367}},{"coordinates":{"latitude":44.5293003,"longitude":11.3107105},"filters":[],"name":"antica trattoria del reno","tags":[]},{"filters":["birra artigianale"],"name":"astral beers pub","coordinates":{"latitude":44.491029,"longitude":11.3464549},"tags":[]},{"filters":["vegan friendly"],"tags":["etnico"],"coordinates":{"latitude":44.5017431,"longitude":11.3311706},"name":"atene"},{"filters":["birra artigianale"],"name":"baladin bologna","tags":[],"coordinates":{"latitude":44.493388,"longitude":11.344936}},{"tags":[],"filters":["cocktail"],"coordinates":{"latitude":44.4929665,"longitude":11.3493317},"name":"bamboo"},{"filters":["vegan friendly","all'aperto","vineria"],"name":"banco del vino","coordinates":{"latitude":44.4969284,"longitude":11.3439926},"tags":["pizza"]},{"filters":["cocktail","all'aperto"],"coordinates":{"latitude":44.4963869,"longitude":11.3376842},"name":"bar volare","tags":[]},{"name":"basara sushi pasticceria","filters":["da provare"],"coordinates":{"latitude":44.4919443,"longitude":11.3424674},"tags":[]},{"name":"basilico food bologna","filters":["vegan friendly"],"tags":[],"coordinates":{"latitude":44.4931917,"longitude":11.3612935}},{"coordinates":{"latitude":44.4818218,"longitude":11.3709723},"tags":[],"filters":["da provare"],"name":"beerbo"},{"name":"beerichino","filters":["da provare"],"tags":[],"coordinates":{"latitude":44.49632,"longitude":11.3313105}},{"filters":["da provare"],"name":"bemabò","tags":[],"coordinates":{"latitude":44.506972,"longitude":11.3061537}},{"coordinates":{"latitude":44.4949175,"longitude":11.351915},"name":"berberè","tags":["pizza"],"filters":[]},{"name":"berberè - petroni","coordinates":{"latitude":44.4949195,"longitude":11.3518944},"filters":["vegan friendly"],"tags":[]},{"coordinates":{"latitude":44.4974891,"longitude":11.3420948},"name":"bio's kitchen bologna","tags":[],"filters":["vegan friendly"]},{"name":"birra cerqua","tags":[],"coordinates":{"latitude":44.4917894,"longitude":11.3545887},"filters":["birra artigianale","all'aperto"]},{"coordinates":{"latitude":44.4935305,"longitude":11.3474944},"tags":[],"filters":["birra artigianale","all'aperto"],"name":"birreria popolare"},{"coordinates":{"latitude":44.494572,"longitude":11.338698},"filters":["cocktail"],"tags":[],"name":"boavista snc di bonazza alessandro"},{"coordinates":{"latitude":44.4988323,"longitude":11.3399345},"tags":[],"name":"bonelli burgers","filters":[]},{"filters":["vegan friendly","cocktail","birra artigianale","all'aperto"],"name":"borgo mameli","coordinates":{"latitude":44.4990915,"longitude":11.3267357},"tags":["pizza"]},{"name":"botanica lab cucina","coordinates":{"latitude":44.4933727,"longitude":11.3413207},"tags":[],"filters":["vegan friendly","all'aperto"]},{"name":"brewdog bar","tags":[],"coordinates":{"latitude":44.4964547,"longitude":11.3298628},"filters":["vegan friendly"]},{"coordinates":{"latitude":44.4964547,"longitude":11.3298628},"tags":[],"name":"brewdog bar bologna","filters":["birra artigianale"]},{"tags":[],"name":"ca' shin","coordinates":{"latitude":44.4440608,"longitude":11.3033984},"filters":["vegan friendly","all'aperto"]},{"name":"caffè letterario - sebastiano caridi","coordinates":{"latitude":44.4963716,"longitude":11.3423527},"tags":[],"filters":["brunch e colazioni"]},{"tags":[],"filters":["all'aperto"],"name":"caffè letterario, pasticceria, bistrot, bar, torte, eventi - sebastiano caridi","coordinates":{"latitude":44.4963844,"longitude":11.3424429}},{"filters":["vegan friendly","da provare"],"tags":[],"name":"caffè ristretto","coordinates":{"latitude":44.4956178,"longitude":11.3398432}},{"coordinates":{"latitude":44.4914547,"longitude":11.3432387},"name":"caffè zanarini","tags":[],"filters":["cocktail"]},{"coordinates":{"latitude":44.4954739,"longitude":11.3378228},"tags":[],"name":"café pasticceria gamberini","filters":["cocktail"]},{"name":"camera a sud","filters":["all'aperto"],"coordinates":{"latitude":44.4963594,"longitude":11.3471516},"tags":[]},{"tags":[],"coordinates":{"latitude":44.492687,"longitude":11.3477708},"filters":["cocktail","all'aperto","aperitivo"],"name":"camera con vista bistrot"},{"name":"canapè","tags":[],"filters":["da provare"],"coordinates":{"latitude":44.4943607,"longitude":11.3309137}},{"tags":[],"name":"cantinella | ristoro all'arena del sole","filters":["all'aperto","aperitivo"],"coordinates":{"latitude":44.4996796,"longitude":11.343528}},{"filters":["cocktail","all'aperto"],"coordinates":{"latitude":44.4918235,"longitude":11.3449596},"name":"casa minghetti","tags":[]},{"coordinates":{"latitude":44.4944701,"longitude":11.3278338},"name":"cinque sapori cucina e bottega","tags":[],"filters":["vegan friendly","all'aperto"]},{"filters":["da provare"],"tags":[],"coordinates":{"latitude":44.4894699,"longitude":11.3431927},"name":"corten"},{"tags":[],"coordinates":{"latitude":44.5085252,"longitude":11.2963257},"filters":["pizza al taglio"],"name":"cotta & cotta"},{"name":"dal sarto","filters":["cocktail","all'aperto"],"coordinates":{"latitude":44.4989035,"longitude":11.3450863},"tags":[]},{"coordinates":{"latitude":44.4961856,"longitude":11.3599238},"filters":["vegan friendly"],"name":"delogo - taverna greca","tags":[]},{"filters":[],"coordinates":{"latitude":44.4961058,"longitude":11.3599427},"tags":["etnico"],"name":"delogo cucina greca"},{"coordinates":{"latitude":44.4773714,"longitude":11.3698795},"filters":["vegan friendly","aperitivo","vineria"],"name":"drogheria delle api","tags":[]},{"coordinates":{"latitude":44.403562,"longitude":11.460126},"tags":[],"name":"dulcamara","filters":["vegan friendly","all'aperto"]},{"name":"ein prosit","coordinates":{"latitude":44.5027627,"longitude":11.3392199},"filters":["all'aperto"],"tags":[]},{"coordinates":{"latitude":44.5027706,"longitude":11.3392295},"filters":["pub"],"name":"ein prosit bologna","tags":[]},{"tags":[],"coordinates":{"latitude":44.4938067,"longitude":11.3384470999999},"filters":[],"name":"el saor"},{"filters":["cocktail","da provare"],"tags":[],"name":"emporio 1920","coordinates":{"latitude":44.4903854,"longitude":11.3456388}},{"tags":[],"filters":["cocktail"],"name":"emporio armani","coordinates":{"latitude":44.4922661,"longitude":11.3444444}},{"tags":[],"coordinates":{"latitude":44.4921737,"longitude":11.343762},"name":"emporio armani caffè bologna","filters":["da provare"]},{"coordinates":{"latitude":44.4976403,"longitude":11.3545491},"name":"enoteca al risanamento","filters":["vineria"],"tags":[]},{"coordinates":{"latitude":44.4961352,"longitude":11.3363078},"name":"enoteca bar des arts","tags":[],"filters":["da provare"]},{"coordinates":{"latitude":44.4891846,"longitude":11.3593789},"filters":["da provare"],"tags":[],"name":"enoteca bibe bologna"},{"filters":["vineria"],"name":"enoteca historical faccioli","coordinates":{"latitude":44.4952493,"longitude":11.3444547},"tags":[]},{"name":"enoteca italiana","filters":["vineria"],"coordinates":{"latitude":44.4977205,"longitude":11.3438164},"tags":[]},{"tags":[],"name":"enoteca mia cantina","coordinates":{"latitude":44.4901207,"longitude":11.3338687},"filters":["da provare"]},{"name":"enoteca storica faccioli","filters":["all'aperto"],"coordinates":{"latitude":44.4952147,"longitude":11.3443619},"tags":[]},{"filters":["cocktail","aperitivo"],"name":"fabrik”","tags":[],"coordinates":{"latitude":44.4987624,"longitude":11.3463004}},{"name":"fermento","coordinates":{"latitude":44.5096195,"longitude":11.3455079},"tags":[],"filters":["vegan friendly","cocktail","birra artigianale"]},{"filters":["cocktail","aperitivo"],"coordinates":{"latitude":44.4952546,"longitude":11.3442642},"name":"fior di sale","tags":[]},{"filters":["cocktail","da provare"],"name":"foodies","tags":[],"coordinates":{"latitude":44.492669,"longitude":11.345068}},{"filters":["romantico","cocktail"],"coordinates":{"latitude":44.4812752,"longitude":11.3612014},"tags":[],"name":"fourghetti"},{"tags":["pizza"],"filters":[],"coordinates":{"latitude":44.4933376,"longitude":11.3468602},"name":"fra diavolo pizza & cucina - bologna"},{"name":"fra diavolo pizzeria","filters":["vegan friendly","all'aperto"],"coordinates":{"latitude":44.4933292,"longitude":11.346845},"tags":[]},{"coordinates":{"latitude":44.4884235,"longitude":11.3492167},"filters":["vegan friendly"],"tags":[],"name":"fram bistrot bioveg - bologna"},{"tags":[],"coordinates":{"latitude":44.498567,"longitude":11.336783},"name":"funtanir bistrò cocktail & rooms bologna","filters":["da provare"]},{"tags":[],"coordinates":{"latitude":44.4930402,"longitude":11.3422725},"filters":["da provare"],"name":"gran bar"},{"tags":["etnico"],"coordinates":{"latitude":44.4967696,"longitude":11.3446555},"name":"guero","filters":["vegan friendly","brunch e colazioni","cocktail","all'aperto","aperitivo"]},{"tags":[],"coordinates":{"latitude":44.5031242,"longitude":11.3377399},"name":"gustopiano","filters":["vineria"]},{"coordinates":{"latitude":44.512625,"longitude":11.3521205},"filters":["vegan friendly"],"name":"habesha restaurant","tags":[]},{"filters":["da provare"],"coordinates":{"latitude":44.5079281,"longitude":11.3553374},"tags":[],"name":"haiku"},{"name":"hamerica's - zamboni","tags":[],"filters":["vegan friendly"],"coordinates":{"latitude":44.4972331,"longitude":11.3529244}},{"filters":["da provare"],"name":"harvest pub","tags":[],"coordinates":{"latitude":44.5004925,"longitude":11.3223264}},{"coordinates":{"latitude":44.4963889,"longitude":11.3416667},"tags":[],"filters":["romantico","cocktail"],"name":"i conoscenti"},{"coordinates":{"latitude":44.4963978,"longitude":11.3417031},"tags":[],"name":"i conoscenti - cocktail e cucina","filters":["all'aperto"]},{"tags":[],"coordinates":{"latitude":44.5023073,"longitude":11.3346902},"filters":["vegan friendly","brunch e colazioni","all'aperto","aperitivo"],"name":"il cameo"},{"coordinates":{"latitude":44.5027267,"longitude":11.3442475},"filters":[],"tags":[],"name":"il panino"},{"coordinates":{"latitude":44.4989823,"longitude":11.3456745},"tags":[],"name":"il piatto rotto","filters":["all'aperto"]},{"coordinates":{"latitude":44.5102983,"longitude":11.3439726},"filters":["da provare"],"tags":[],"name":"il pollaio"},{"filters":["vegan friendly","birra artigianale","all'aperto"],"name":"il punto","tags":[],"coordinates":{"latitude":44.4972635,"longitude":11.3305994}},{"coordinates":{"latitude":44.4955577,"longitude":11.3309875},"filters":["vegan friendly"],"name":"il rovescio","tags":["pizza"]},{"name":"india","filters":["vegan friendly"],"coordinates":{"latitude":44.4966526,"longitude":11.3392563},"tags":[]},{"coordinates":{"latitude":44.4972505,"longitude":11.3475646},"name":"jukebox cafe","filters":["vegan friendly","da provare"],"tags":[]},{"coordinates":{"latitude":44.501469,"longitude":11.3213008},"name":"kabulàgna","tags":["etnico"],"filters":["vegan friendly"]},{"tags":[],"filters":["da provare"],"name":"l'emporio","coordinates":{"latitude":44.4899082,"longitude":11.3409041}},{"coordinates":{"latitude":44.4928745,"longitude":11.3449346},"tags":[],"name":"l'inde le palais","filters":["da provare"]},{"name":"l'ora d'aria","coordinates":{"latitude":44.4982892,"longitude":11.3391358},"tags":[],"filters":["vegan friendly","cocktail","all'aperto"]},{"name":"la borbonica","filters":["brunch e colazioni"],"coordinates":{"latitude":44.4990062,"longitude":11.3402586},"tags":[]},{"name":"la bottega di franco","filters":["romantico","all'aperto"],"tags":[],"coordinates":{"latitude":44.5184779,"longitude":11.3106059}},{"tags":[],"filters":[],"name":"la buàt","coordinates":{"latitude":44.5038347,"longitude":11.3717442}},{"name":"la buàt bologna","coordinates":{"latitude":44.5038347,"longitude":11.3717442},"tags":[],"filters":["vegan friendly"]},{"name":"la frasca al vicolo","tags":[],"filters":["vegan friendly","pub"],"coordinates":{"latitude":44.4938741,"longitude":11.3444393}},{"coordinates":{"latitude":44.4987162,"longitude":11.345497},"name":"la montanarina bistrò","tags":[],"filters":["all'aperto"]},{"coordinates":{"latitude":44.4960337,"longitude":11.3459377},"name":"la prosciutteria","filters":["vineria"],"tags":[]},{"tags":[],"name":"la svolta - cucina di ragione","coordinates":{"latitude":44.4919149,"longitude":11.3351159},"filters":["vegan friendly"]},{"name":"la taglieria","tags":[],"coordinates":{"latitude":44.5009626,"longitude":11.3339711},"filters":["all'aperto","vineria"]},{"name":"le stanze","tags":[],"filters":["cocktail"],"coordinates":{"latitude":44.4980749,"longitude":11.3477849999999}},{"tags":[],"coordinates":{"latitude":44.4987649,"longitude":11.3466482},"name":"le vie dei briganti","filters":["cocktail","all'aperto"]},{"name":"lestofante - bologna","filters":["vegan friendly"],"coordinates":{"latitude":44.4900014,"longitude":11.3520177},"tags":[]},{"coordinates":{"latitude":44.490093,"longitude":11.3521042},"name":"lestofante bologna","filters":["da provare"],"tags":[]},{"filters":["vegan friendly","da provare"],"coordinates":{"latitude":44.4851536,"longitude":11.366605},"name":"ling’s ravioleria migrante","tags":[]},{"coordinates":{"latitude":44.4848405,"longitude":11.3603635},"tags":[],"filters":["da provare"],"name":"lokura"},{"filters":["birra artigianale"],"coordinates":{"latitude":44.4989275,"longitude":11.3495624},"name":"lortica","tags":[]},{"coordinates":{"latitude":44.495524,"longitude":11.3344509},"name":"macondo - cocktail bar","tags":[],"filters":["cocktail","all'aperto"]},{"coordinates":{"latitude":44.4941966,"longitude":11.3514616},"name":"madama beerstrò - bologna","tags":[],"filters":["all'aperto"]},{"tags":[],"coordinates":{"latitude":44.494179,"longitude":11.35162},"name":"madama beerstrò san vitale 31","filters":["birra artigianale"]},{"tags":[],"coordinates":{"latitude":44.5010562,"longitude":11.3339536},"filters":["pub"],"name":"madigan's irish pub"},{"name":"megu lab","tags":[],"filters":["da provare"],"coordinates":{"latitude":44.4933467,"longitude":11.3720903}},{"name":"mexicana","tags":["etnico"],"coordinates":{"latitude":44.4870482,"longitude":11.348225},"filters":[]},{"filters":["da provare"],"tags":[],"name":"mizushi","coordinates":{"latitude":44.4954321,"longitude":11.3354257}},{"tags":[],"filters":["all'aperto"],"coordinates":{"latitude":44.498184,"longitude":11.3493482},"name":"moustache"},{"coordinates":{"latitude":44.497752,"longitude":11.3463467},"filters":["vegan friendly"],"name":"naama cafè","tags":["etnico"]},{"coordinates":{"latitude":44.4935039,"longitude":11.3417393},"name":"naama dolci","tags":["etnico"],"filters":[]},{"filters":[],"tags":["etnico"],"name":"nippon ramen","coordinates":{"latitude":44.494599,"longitude":11.3480012}},{"name":"nu lounge bar","coordinates":{"latitude":44.493046,"longitude":11.344488},"filters":["cocktail","all'aperto"],"tags":[]},{"filters":["da provare"],"coordinates":{"latitude":44.4968989,"longitude":11.338142},"name":"oltre.","tags":[]},{"name":"onigiri raku","filters":["da provare"],"coordinates":{"latitude":44.5034694,"longitude":11.3412159},"tags":[]},{"coordinates":{"latitude":44.4937324,"longitude":11.3365249},"tags":[],"filters":["all'aperto"],"name":"osteria bartolini"},{"coordinates":{"latitude":44.4904414,"longitude":11.3461761},"name":"osteria de' poeti","filters":["trattoria"],"tags":[]},{"name":"osteria del cappello","tags":[],"coordinates":{"latitude":44.493048,"longitude":11.341465},"filters":["da provare"]},{"coordinates":{"latitude":44.499068,"longitude":11.3483727},"name":"osteria incastrato","tags":[],"filters":["da provare"]},{"name":"osteria la frasca","filters":["vegan friendly","pub"],"coordinates":{"latitude":44.4946266,"longitude":11.3273845},"tags":[]},{"coordinates":{"latitude":44.491252,"longitude":11.332772},"tags":[],"filters":["da provare"],"name":"osteria santa caterina"},{"name":"osteria satyricon","tags":[],"coordinates":{"latitude":44.4724607,"longitude":11.3701665},"filters":["da provare"]},{"tags":[],"filters":["trattoria"],"name":"osteria vini d'italia bologna","coordinates":{"latitude":44.480813,"longitude":11.382238}},{"filters":["all'aperto"],"name":"pane e panelle","tags":[],"coordinates":{"latitude":44.4939909,"longitude":11.35538}},{"name":"papeo - pizzeria, ristorante","filters":["vegan friendly"],"coordinates":{"latitude":44.5140868,"longitude":11.3181322},"tags":[]},{"coordinates":{"latitude":44.5140834,"longitude":11.3181663},"tags":[],"name":"papeo - pizzeria, ristorante, pizza senza glutine bologna","filters":["da provare"]},{"filters":["brunch e colazioni"],"tags":[],"name":"pappare","coordinates":{"latitude":44.494757,"longitude":11.3465249999999}},{"tags":[],"coordinates":{"latitude":44.494757,"longitude":11.346525},"name":"pappare' bologna","filters":["vegan friendly"]},{"name":"pepperoni","coordinates":{"latitude":44.4755956,"longitude":11.3427982000001},"tags":["pizza"],"filters":[]},{"name":"pescaria","coordinates":{"latitude":44.4965178,"longitude":11.3390936},"tags":[],"filters":["all'aperto"]},{"tags":["etnico"],"coordinates":{"latitude":44.4967278,"longitude":11.3455744},"filters":["vegan friendly"],"name":"piedra del sol"},{"coordinates":{"latitude":44.4953727,"longitude":11.3377278},"filters":[],"tags":[],"name":"pistamentuccia - cucina romana"},{"tags":[],"name":"pistamentuccia - pizza al taglio romana","filters":["pizza al taglio"],"coordinates":{"latitude":44.4988893,"longitude":11.3410623}},{"tags":[],"coordinates":{"latitude":44.496723,"longitude":11.347479},"name":"pizzartist - via marsala","filters":["pizza al taglio"]},{"tags":[],"coordinates":{"latitude":44.4962922,"longitude":11.3361391999999},"name":"porcomondo salumi e vino","filters":["vineria"]},{"filters":["vegan friendly","da provare"],"coordinates":{"latitude":44.5122731,"longitude":11.3890095},"name":"porta pazienza","tags":[]},{"name":"principe","coordinates":{"latitude":44.4839234,"longitude":11.3644335},"filters":["aperitivo"],"tags":[]},{"filters":["pub"],"coordinates":{"latitude":44.489718,"longitude":11.297118},"tags":[],"name":"pub birreria la locanda"},{"name":"pummà bologna","coordinates":{"latitude":44.4933879,"longitude":11.3355636},"filters":["vegan friendly"],"tags":["pizza"]},{"name":"ranzani 13","filters":["vegan friendly"],"tags":[],"coordinates":{"latitude":44.5009072,"longitude":11.3577483}},{"coordinates":{"latitude":44.5009414,"longitude":11.3578494999999},"name":"ranzani 13 bologna","tags":["pizza"],"filters":[]},{"filters":["birra artigianale"],"coordinates":{"latitude":44.5009413,"longitude":11.3578363},"tags":[],"name":"ranzani13, bologna"},{"name":"ranzanino","filters":["pizza al taglio"],"tags":[],"coordinates":{"latitude":44.4963138,"longitude":11.3384407999999}},{"tags":[],"filters":["vegan friendly"],"coordinates":{"latitude":44.4875853,"longitude":11.3479876},"name":"raparossa gastrobistronomia"},{"coordinates":{"latitude":44.4994838,"longitude":11.3351617},"name":"re crudo","filters":["da provare"],"tags":[]},{"tags":[],"coordinates":{"latitude":44.4851089,"longitude":11.3395879},"name":"re sole bistrot","filters":["romantico","cocktail"]},{"name":"ristorante africano adal","tags":[],"filters":["vegan friendly"],"coordinates":{"latitude":44.5145,"longitude":11.3508864}},{"name":"ristorante higashi","tags":["etnico"],"filters":[],"coordinates":{"latitude":44.4984763,"longitude":11.3361805}},{"name":"ristorante india","filters":[],"tags":["etnico"],"coordinates":{"latitude":44.496699,"longitude":11.339212}},{"name":"ristorante libra antiaging italian food","filters":["vegan friendly"],"coordinates":{"latitude":44.4945418,"longitude":11.3376868},"tags":[]},{"coordinates":{"latitude":44.4945418,"longitude":11.3376868},"filters":["da provare"],"name":"ristorante libra cucina evolution","tags":[]},{"name":"ristorante pars","coordinates":{"latitude":44.5091484,"longitude":11.3538445},"tags":[],"filters":["vegan friendly"]},{"tags":[],"coordinates":{"latitude":44.4759677,"longitude":11.343086},"filters":["vegan friendly"],"name":"ristorante pizzeria pepperoni"},{"filters":["vegan friendly"],"coordinates":{"latitude":44.5131018,"longitude":11.3433371},"name":"ristorante senafe","tags":[]},{"name":"ristorante singapore asian fusion","tags":[],"coordinates":{"latitude":44.4973242,"longitude":11.3453486},"filters":["vegan friendly"]},{"filters":["all'aperto"],"tags":[],"name":"ruggine","coordinates":{"latitude":44.4930618,"longitude":11.3479748}},{"filters":["da provare"],"coordinates":{"latitude":44.4972142,"longitude":11.3483701},"name":"sale grosso","tags":[]},{"coordinates":{"latitude":44.4939186,"longitude":11.3520953},"name":"sartoria gastronomica","tags":[],"filters":["cocktail","all'aperto","aperitivo"]},{"name":"sbando cucinotto e cantina","filters":["aperitivo","vineria"],"coordinates":{"latitude":44.5102848,"longitude":11.3434},"tags":[]},{"coordinates":{"latitude":44.495141,"longitude":11.3443070000001},"name":"scalinatella ristorante pizzeria bologna","filters":[],"tags":["pizza"]},{"coordinates":{"latitude":44.495331,"longitude":11.323878},"tags":[],"name":"seijo","filters":["da provare"]},{"tags":["etnico"],"coordinates":{"latitude":44.4909628,"longitude":11.338651},"name":"sentaku gyoza bar","filters":[]},{"filters":["vegan friendly"],"name":"sentaku ramen bar","coordinates":{"latitude":44.498351,"longitude":11.3359557},"tags":["etnico"]},{"tags":["etnico"],"name":"seta sushi lab","coordinates":{"latitude":44.4929046,"longitude":11.3485803},"filters":[]},{"name":"sette calici","filters":["da provare"],"tags":[],"coordinates":{"latitude":44.5001919,"longitude":11.3588825}},{"coordinates":{"latitude":44.4888802,"longitude":11.3482924},"tags":[],"filters":["da provare"],"name":"sette tavoli"},{"filters":["da provare"],"name":"sicilyn, gourmet sicilian - japanese","coordinates":{"latitude":44.4933333,"longitude":11.3602778},"tags":[]},{"tags":[],"name":"signorvino","coordinates":{"latitude":44.4939938,"longitude":11.3435512},"filters":["all'aperto","vineria"]},{"tags":["etnico"],"name":"singapore asian fusion","coordinates":{"latitude":44.4973242,"longitude":11.3453486},"filters":[]},{"coordinates":{"latitude":44.5016184,"longitude":11.3310549},"name":"soon - ristorante coreano","filters":["da provare"],"tags":[]},{"coordinates":{"latitude":44.4692365,"longitude":11.4108532},"filters":["da provare"],"name":"storiedipinte savena","tags":[]},{"tags":["etnico"],"coordinates":{"latitude":44.495746,"longitude":11.338024},"filters":[],"name":"sushi corner bologna (mercato delle erbe)"},{"name":"tana del luppolo","coordinates":{"latitude":44.4996503,"longitude":11.3332928},"filters":["birra artigianale"],"tags":[]},{"filters":["da provare"],"name":"the gallery pizzart food & drink","coordinates":{"latitude":44.4929762,"longitude":11.3410924},"tags":["pizza"]},{"tags":[],"name":"the grape brotherhood","coordinates":{"latitude":44.4895652,"longitude":11.3491411},"filters":["da provare"]},{"filters":[],"coordinates":{"latitude":44.497353,"longitude":11.3323182},"tags":[],"name":"trattoria da me"},{"tags":[],"name":"trattoria dal biassanot","filters":["trattoria"],"coordinates":{"latitude":44.4984689,"longitude":11.3451273000001}},{"tags":[],"coordinates":{"latitude":44.5094444,"longitude":11.3455556},"filters":["da provare"],"name":"trattoria di via serra"},{"name":"tricheco","filters":[],"coordinates":{"latitude":44.4882347,"longitude":11.3489731},"tags":[]},{"coordinates":{"latitude":44.4882347,"longitude":11.3489731},"filters":["vegan friendly","all'aperto"],"name":"tricheco osteria","tags":[]},{"filters":["all'aperto"],"name":"twinside","coordinates":{"latitude":44.4989803,"longitude":11.3433054},"tags":[]},{"name":"uno caffé olistico","filters":["vegan friendly"],"tags":[],"coordinates":{"latitude":44.4974458,"longitude":11.3462072}},{"coordinates":{"latitude":44.4926558,"longitude":11.3454769},"tags":[],"name":"velluto botanique eclectique","filters":["da provare"]},{"tags":[],"name":"vicolo colombina","filters":["da provare"],"coordinates":{"latitude":44.492416,"longitude":11.3422087}},{"filters":["all'aperto","vineria"],"name":"vineria favalli","coordinates":{"latitude":44.4930074,"longitude":11.3471804},"tags":[]},{"name":"vinologico","coordinates":{"latitude":44.499253,"longitude":11.3350421},"filters":["vineria"],"tags":[]},{"tags":[],"name":"vivo vincenzo vottero ristorarte","coordinates":{"latitude":44.5020871,"longitude":11.3319676},"filters":["da provare"]},{"tags":[],"name":"wasabi","filters":["da provare"],"coordinates":{"latitude":44.4949226,"longitude":11.3466558}},{"name":"welldone burger","tags":[],"coordinates":{"latitude":44.4937203,"longitude":11.3456913},"filters":["vegan friendly"]},{"coordinates":{"latitude":44.4927334,"longitude":11.3665071},"filters":["vegan friendly","pub"],"tags":[],"name":"wolf"},{"name":"yoma","tags":["etnico"],"coordinates":{"latitude":44.4953201,"longitude":11.343923},"filters":[]},{"filters":["vegan friendly"],"coordinates":{"latitude":44.4961338,"longitude":11.3363326},"tags":["etnico"],"name":"yoshi ramen"},{"tags":["etnico"],"name":"yuzuya","coordinates":{"latitude":44.507738,"longitude":11.342311},"filters":["vegan friendly"]},{"coordinates":{"latitude":44.4953517,"longitude":11.3169376},"tags":[],"name":"zampa & osvaldo","filters":["vineria"]},{"coordinates":{"latitude":44.4955902,"longitude":11.333033},"name":"zapap bologna","tags":[],"filters":["vegan friendly","all'aperto"]},{"tags":[],"filters":["birra artigianale"],"coordinates":{"latitude":44.4955902,"longitude":11.333033},"name":"zapap pratello"},{"name":"zenzero bologna","coordinates":{"latitude":44.5037422,"longitude":11.3379517},"tags":[],"filters":["vegan friendly"]},{"filters":["da provare"],"coordinates":{"latitude":44.5031667,"longitude":11.3337444},"tags":[],"name":"zushi"}]