[{"name":"'o fiore mio pizze di strada","tags":[],"filters":["vegan friendly","pizza al taglio"],"coordinates":{"latitude":44.4941422,"longitude":11.3366421}},{"name":"a casa mia","filters":[],"coordinates":{"latitude":44.50291,"longitude":11.333568},"tags":[]},{"tags":[],"filters":["vegan friendly"],"name":"a casa mia bistrot","coordinates":{"latitude":44.5029873,"longitude":11.3335646}},{"tags":[],"filters":["vegan friendly"],"coordinates":{"latitude":44.500479,"longitude":11.3509879},"name":"alchemillabio bologna"},{"tags":[],"name":"all'osteria bottega","coordinates":{"latitude":44.4910889,"longitude":11.3327222},"filters":["da provare"]},{"tags":[],"coordinates":{"latitude":44.4785051,"longitude":11.3654367},"name":"antica trattoria del ragno","filters":["trattoria"]},{"tags":[],"coordinates":{"latitude":44.5293003,"longitude":11.3107105},"filters":[],"name":"antica trattoria del reno"},{"filters":["birra artigianale"],"tags":[],"coordinates":{"latitude":44.491029,"longitude":11.3464549},"name":"astral beers pub"},{"name":"atene","coordinates":{"latitude":44.5017431,"longitude":11.3311706},"tags":["etnico"],"filters":["vegan friendly"]},{"coordinates":{"latitude":44.493388,"longitude":11.344936},"name":"baladin bologna","filters":["birra artigianale"],"tags":[]},{"tags":[],"filters":["cocktail"],"coordinates":{"latitude":44.4929665,"longitude":11.3493317},"name":"bamboo"},{"filters":["vegan friendly","all'aperto","vineria"],"name":"banco del vino","coordinates":{"latitude":44.4969284,"longitude":11.3439926},"tags":["pizza"]},{"tags":[],"filters":["cocktail","all'aperto"],"coordinates":{"latitude":44.4963869,"longitude":11.3376842},"name":"bar volare"},{"coordinates":{"latitude":44.4919443,"longitude":11.3424674},"filters":["da provare"],"name":"basara sushi pasticceria","tags":[]},{"tags":[],"filters":["vegan friendly"],"name":"basilico food bologna","coordinates":{"latitude":44.4931917,"longitude":11.3612935}},{"tags":[],"coordinates":{"latitude":44.4818218,"longitude":11.3709723},"name":"beerbo","filters":["da provare"]},{"coordinates":{"latitude":44.49632,"longitude":11.3313105},"name":"beerichino","tags":[],"filters":["da provare"]},{"coordinates":{"latitude":44.506972,"longitude":11.3061537},"tags":[],"filters":["da provare"],"name":"bemabò"},{"tags":["pizza"],"filters":[],"coordinates":{"latitude":44.4949175,"longitude":11.351915},"name":"berberè"},{"name":"berberè - petroni","tags":[],"coordinates":{"latitude":44.4949195,"longitude":11.3518944},"filters":["vegan friendly"]},{"coordinates":{"latitude":44.4974891,"longitude":11.3420948},"name":"bio's kitchen bologna","tags":[],"filters":["vegan friendly"]},{"filters":["birra artigianale","all'aperto"],"tags":[],"coordinates":{"latitude":44.4917894,"longitude":11.3545887},"name":"birra cerqua"},{"coordinates":{"latitude":44.4935305,"longitude":11.3474944},"tags":[],"name":"birreria popolare","filters":["birra artigianale","all'aperto"]},{"tags":[],"name":"boavista snc di bonazza alessandro","coordinates":{"latitude":44.494572,"longitude":11.338698},"filters":["cocktail"]},{"tags":[],"coordinates":{"latitude":44.4988323,"longitude":11.3399345},"name":"bonelli burgers","filters":[]},{"name":"borgo mameli","filters":["vegan friendly","cocktail","birra artigianale","all'aperto"],"tags":["pizza"],"coordinates":{"latitude":44.4990915,"longitude":11.3267357}},{"coordinates":{"latitude":44.4933727,"longitude":11.3413207},"name":"botanica lab cucina","filters":["vegan friendly","all'aperto"],"tags":[]},{"tags":[],"name":"brewdog bar","coordinates":{"latitude":44.4964547,"longitude":11.3298628},"filters":["vegan friendly"]},{"name":"brewdog bar bologna","coordinates":{"latitude":44.4964547,"longitude":11.3298628},"filters":["birra artigianale"],"tags":[]},{"filters":["vegan friendly","all'aperto"],"name":"ca' shin","tags":[],"coordinates":{"latitude":44.4440608,"longitude":11.3033984}},{"tags":[],"coordinates":{"latitude":44.4963716,"longitude":11.3423527},"name":"caffè letterario - sebastiano caridi","filters":["brunch e colazioni"]},{"name":"caffè letterario, pasticceria, bistrot, bar, torte, eventi - sebastiano caridi","coordinates":{"latitude":44.4963844,"longitude":11.3424429},"filters":["all'aperto"],"tags":[]},{"tags":[],"filters":["vegan friendly","da provare"],"coordinates":{"latitude":44.4956178,"longitude":11.3398432},"name":"caffè ristretto"},{"filters":["cocktail"],"tags":[],"coordinates":{"latitude":44.4914547,"longitude":11.3432387},"name":"caffè zanarini"},{"tags":[],"filters":["cocktail"],"coordinates":{"latitude":44.4954739,"longitude":11.3378228},"name":"café pasticceria gamberini"},{"name":"camera a sud","coordinates":{"latitude":44.4963594,"longitude":11.3471516},"filters":["all'aperto"],"tags":[]},{"name":"camera con vista bistrot","filters":["cocktail","all'aperto","aperitivo"],"tags":[],"coordinates":{"latitude":44.492687,"longitude":11.3477708}},{"coordinates":{"latitude":44.4943607,"longitude":11.3309137},"filters":["da provare"],"name":"canapè","tags":[]},{"name":"cantinella | ristoro all'arena del sole","tags":[],"coordinates":{"latitude":44.4996796,"longitude":11.343528},"filters":["all'aperto","aperitivo"]},{"coordinates":{"latitude":44.4918235,"longitude":11.3449596},"filters":["cocktail","all'aperto"],"tags":[],"name":"casa minghetti"},{"filters":["vegan friendly","all'aperto"],"tags":[],"name":"cinque sapori cucina e bottega","coordinates":{"latitude":44.4944701,"longitude":11.3278338}},{"name":"corten","tags":[],"coordinates":{"latitude":44.4894699,"longitude":11.3431927},"filters":["da provare"]},{"coordinates":{"latitude":44.5085252,"longitude":11.2963257},"filters":["pizza al taglio"],"name":"cotta & cotta","tags":[]},{"tags":[],"filters":["cocktail","all'aperto"],"name":"dal sarto","coordinates":{"latitude":44.4989035,"longitude":11.3450863}},{"coordinates":{"latitude":44.4961856,"longitude":11.3599238},"tags":[],"name":"delogo - taverna greca","filters":["vegan friendly"]},{"filters":[],"coordinates":{"latitude":44.4961058,"longitude":11.3599427},"name":"delogo cucina greca","tags":["etnico"]},{"filters":["vegan friendly","aperitivo","vineria"],"name":"drogheria delle api","coordinates":{"latitude":44.4773714,"longitude":11.3698795},"tags":[]},{"name":"dulcamara","tags":[],"coordinates":{"latitude":44.403562,"longitude":11.460126},"filters":["vegan friendly","all'aperto"]},{"tags":[],"coordinates":{"latitude":44.5027627,"longitude":11.3392199},"name":"ein prosit","filters":["all'aperto"]},{"tags":[],"coordinates":{"latitude":44.5027706,"longitude":11.3392295},"name":"ein prosit bologna","filters":["pub"]},{"filters":[],"tags":[],"name":"el saor","coordinates":{"latitude":44.4938067,"longitude":11.3384470999999}},{"tags":[],"coordinates":{"latitude":44.4903854,"longitude":11.3456388},"filters":["cocktail","da provare"],"name":"emporio 1920"},{"filters":["cocktail"],"name":"emporio armani","tags":[],"coordinates":{"latitude":44.4922661,"longitude":11.3444444}},{"filters":["da provare"],"coordinates":{"latitude":44.4921737,"longitude":11.343762},"tags":[],"name":"emporio armani caffè bologna"},{"coordinates":{"latitude":44.4976403,"longitude":11.3545491},"name":"enoteca al risanamento","tags":[],"filters":["vineria"]},{"filters":["da provare"],"tags":[],"name":"enoteca bar des arts","coordinates":{"latitude":44.4961352,"longitude":11.3363078}},{"name":"enoteca bibe bologna","tags":[],"filters":["da provare"],"coordinates":{"latitude":44.4891846,"longitude":11.3593789}},{"filters":["vineria"],"tags":[],"name":"enoteca historical faccioli","coordinates":{"latitude":44.4952493,"longitude":11.3444547}},{"tags":[],"filters":["vineria"],"name":"enoteca italiana","coordinates":{"latitude":44.4977205,"longitude":11.3438164}},{"filters":["da provare"],"name":"enoteca mia cantina","tags":[],"coordinates":{"latitude":44.4901207,"longitude":11.3338687}},{"tags":[],"coordinates":{"latitude":44.4952147,"longitude":11.3443619},"name":"enoteca storica faccioli","filters":["all'aperto"]},{"coordinates":{"latitude":44.4987624,"longitude":11.3463004},"name":"fabrik”","tags":[],"filters":["cocktail","aperitivo"]},{"coordinates":{"latitude":44.5096195,"longitude":11.3455079},"filters":["vegan friendly","cocktail","birra artigianale"],"tags":[],"name":"fermento"},{"tags":[],"coordinates":{"latitude":44.4952546,"longitude":11.3442642},"name":"fior di sale","filters":["cocktail","aperitivo"]},{"filters":["cocktail","da provare"],"name":"foodies","coordinates":{"latitude":44.492669,"longitude":11.345068},"tags":[]},{"coordinates":{"latitude":44.4812752,"longitude":11.3612014},"tags":[],"name":"fourghetti","filters":["romantico","cocktail"]},{"tags":["pizza"],"coordinates":{"latitude":44.4933376,"longitude":11.3468602},"filters":[],"name":"fra diavolo pizza & cucina - bologna"},{"coordinates":{"latitude":44.4933292,"longitude":11.346845},"filters":["vegan friendly","all'aperto"],"tags":[],"name":"fra diavolo pizzeria"},{"tags":[],"filters":["vegan friendly"],"coordinates":{"latitude":44.4884235,"longitude":11.3492167},"name":"fram bistrot bioveg - bologna"},{"tags":[],"filters":["da provare"],"name":"funtanir bistrò cocktail & rooms bologna","coordinates":{"latitude":44.498567,"longitude":11.336783}},{"tags":[],"name":"gran bar","coordinates":{"latitude":44.4930402,"longitude":11.3422725},"filters":["da provare"]},{"coordinates":{"latitude":44.4967696,"longitude":11.3446555},"name":"guero","filters":["vegan friendly","brunch e colazioni","cocktail","all'aperto","aperitivo"],"tags":["etnico"]},{"coordinates":{"latitude":44.5031242,"longitude":11.3377399},"name":"gustopiano","tags":[],"filters":["vineria"]},{"tags":[],"filters":["vegan friendly"],"name":"habesha restaurant","coordinates":{"latitude":44.512625,"longitude":11.3521205}},{"coordinates":{"latitude":44.5079281,"longitude":11.3553374},"filters":["da provare"],"tags":[],"name":"haiku"},{"coordinates":{"latitude":44.4972331,"longitude":11.3529244},"filters":["vegan friendly"],"tags":[],"name":"hamerica's - zamboni"},{"name":"harvest pub","coordinates":{"latitude":44.5004925,"longitude":11.3223264},"filters":["da provare"],"tags":[]},{"tags":[],"filters":["romantico","cocktail"],"coordinates":{"latitude":44.4963889,"longitude":11.3416667},"name":"i conoscenti"},{"coordinates":{"latitude":44.4963978,"longitude":11.3417031},"filters":["all'aperto"],"name":"i conoscenti - cocktail e cucina","tags":[]},{"tags":[],"name":"il cameo","coordinates":{"latitude":44.5023073,"longitude":11.3346902},"filters":["vegan friendly","brunch e colazioni","all'aperto","aperitivo"]},{"tags":[],"name":"il panino","coordinates":{"latitude":44.5027267,"longitude":11.3442475},"filters":[]},{"filters":["all'aperto"],"name":"il piatto rotto","coordinates":{"latitude":44.4989823,"longitude":11.3456745},"tags":[]},{"filters":["da provare"],"coordinates":{"latitude":44.5102983,"longitude":11.3439726},"name":"il pollaio","tags":[]},{"tags":[],"name":"il punto","filters":["vegan friendly","birra artigianale","all'aperto"],"coordinates":{"latitude":44.4972635,"longitude":11.3305994}},{"name":"il rovescio","coordinates":{"latitude":44.4955577,"longitude":11.3309875},"tags":["pizza"],"filters":["vegan friendly"]},{"filters":["vegan friendly"],"tags":[],"name":"india","coordinates":{"latitude":44.4966526,"longitude":11.3392563}},{"filters":["vegan friendly","da provare"],"coordinates":{"latitude":44.4972505,"longitude":11.3475646},"tags":[],"name":"jukebox cafe"},{"filters":["vegan friendly"],"coordinates":{"latitude":44.501469,"longitude":11.3213008},"tags":["etnico"],"name":"kabulàgna"},{"filters":["da provare"],"name":"l'emporio","tags":[],"coordinates":{"latitude":44.4899082,"longitude":11.3409041}},{"filters":["da provare"],"name":"l'inde le palais","tags":[],"coordinates":{"latitude":44.4928745,"longitude":11.3449346}},{"filters":["vegan friendly","cocktail","all'aperto"],"coordinates":{"latitude":44.4982892,"longitude":11.3391358},"tags":[],"name":"l'ora d'aria"},{"tags":[],"name":"la borbonica","filters":["brunch e colazioni"],"coordinates":{"latitude":44.4990062,"longitude":11.3402586}},{"coordinates":{"latitude":44.5184779,"longitude":11.3106059},"name":"la bottega di franco","tags":[],"filters":["romantico","all'aperto"]},{"coordinates":{"latitude":44.5038347,"longitude":11.3717442},"tags":[],"name":"la buàt","filters":[]},{"filters":["vegan friendly"],"tags":[],"name":"la buàt bologna","coordinates":{"latitude":44.5038347,"longitude":11.3717442}},{"tags":[],"coordinates":{"latitude":44.4938741,"longitude":11.3444393},"filters":["vegan friendly","pub"],"name":"la frasca al vicolo"},{"name":"la montanarina bistrò","coordinates":{"latitude":44.4987162,"longitude":11.345497},"filters":["all'aperto"],"tags":[]},{"coordinates":{"latitude":44.4960337,"longitude":11.3459377},"filters":["vineria"],"name":"la prosciutteria","tags":[]},{"name":"la svolta - cucina di ragione","coordinates":{"latitude":44.4919149,"longitude":11.3351159},"tags":[],"filters":["vegan friendly"]},{"tags":[],"coordinates":{"latitude":44.5009626,"longitude":11.3339711},"filters":["all'aperto","vineria"],"name":"la taglieria"},{"coordinates":{"latitude":44.4980749,"longitude":11.3477849999999},"filters":["cocktail"],"tags":[],"name":"le stanze"},{"filters":["cocktail","all'aperto"],"tags":[],"name":"le vie dei briganti","coordinates":{"latitude":44.4987649,"longitude":11.3466482}},{"coordinates":{"latitude":44.4900014,"longitude":11.3520177},"filters":["vegan friendly"],"tags":[],"name":"lestofante - bologna"},{"tags":[],"filters":["da provare"],"name":"lestofante bologna","coordinates":{"latitude":44.490093,"longitude":11.3521042}},{"tags":[],"name":"ling’s ravioleria migrante","coordinates":{"latitude":44.4851536,"longitude":11.366605},"filters":["vegan friendly","da provare"]},{"name":"lokura","tags":[],"filters":["da provare"],"coordinates":{"latitude":44.4848405,"longitude":11.3603635}},{"tags":[],"coordinates":{"latitude":44.4989275,"longitude":11.3495624},"name":"lortica","filters":["birra artigianale"]},{"name":"macondo - cocktail bar","coordinates":{"latitude":44.495524,"longitude":11.3344509},"filters":["cocktail","all'aperto"],"tags":[]},{"coordinates":{"latitude":44.4941966,"longitude":11.3514616},"name":"madama beerstrò - bologna","tags":[],"filters":["all'aperto"]},{"coordinates":{"latitude":44.494179,"longitude":11.35162},"tags":[],"name":"madama beerstrò san vitale 31","filters":["birra artigianale"]},{"tags":[],"filters":["pub"],"name":"madigan's irish pub","coordinates":{"latitude":44.5010562,"longitude":11.3339536}},{"tags":[],"filters":["da provare"],"name":"megu lab","coordinates":{"latitude":44.4933467,"longitude":11.3720903}},{"coordinates":{"latitude":44.4870482,"longitude":11.348225},"filters":[],"tags":["etnico"],"name":"mexicana"},{"name":"mizushi","filters":["da provare"],"tags":[],"coordinates":{"latitude":44.4954321,"longitude":11.3354257}},{"coordinates":{"latitude":44.498184,"longitude":11.3493482},"filters":["all'aperto"],"tags":[],"name":"moustache"},{"name":"naama cafè","tags":["etnico"],"filters":["vegan friendly"],"coordinates":{"latitude":44.497752,"longitude":11.3463467}},{"filters":[],"name":"naama dolci","tags":["etnico"],"coordinates":{"latitude":44.4935039,"longitude":11.3417393}},{"tags":["etnico"],"coordinates":{"latitude":44.494599,"longitude":11.3480012},"filters":[],"name":"nippon ramen"},{"coordinates":{"latitude":44.493046,"longitude":11.344488},"filters":["cocktail","all'aperto"],"tags":[],"name":"nu lounge bar"},{"coordinates":{"latitude":44.4968989,"longitude":11.338142},"filters":["da provare"],"tags":[],"name":"oltre."},{"tags":[],"coordinates":{"latitude":44.5034694,"longitude":11.3412159},"filters":["da provare"],"name":"onigiri raku"},{"coordinates":{"latitude":44.4937324,"longitude":11.3365249},"filters":["all'aperto"],"name":"osteria bartolini","tags":[]},{"filters":["trattoria"],"name":"osteria de' poeti","tags":[],"coordinates":{"latitude":44.4904414,"longitude":11.3461761}},{"filters":["da provare"],"coordinates":{"latitude":44.493048,"longitude":11.341465},"tags":[],"name":"osteria del cappello"},{"coordinates":{"latitude":44.499068,"longitude":11.3483727},"filters":["da provare"],"tags":[],"name":"osteria incastrato"},{"name":"osteria la frasca","coordinates":{"latitude":44.4946266,"longitude":11.3273845},"tags":[],"filters":["vegan friendly","pub"]},{"name":"osteria santa caterina","tags":[],"filters":["da provare"],"coordinates":{"latitude":44.491252,"longitude":11.332772}},{"coordinates":{"latitude":44.4724607,"longitude":11.3701665},"filters":["da provare"],"name":"osteria satyricon","tags":[]},{"name":"osteria vini d'italia bologna","coordinates":{"latitude":44.480813,"longitude":11.382238},"tags":[],"filters":["trattoria"]},{"name":"pane e panelle","filters":["all'aperto"],"tags":[],"coordinates":{"latitude":44.4939909,"longitude":11.35538}},{"name":"papeo - pizzeria, ristorante","filters":["vegan friendly"],"coordinates":{"latitude":44.5140868,"longitude":11.3181322},"tags":[]},{"coordinates":{"latitude":44.5140834,"longitude":11.3181663},"tags":[],"name":"papeo - pizzeria, ristorante, pizza senza glutine bologna","filters":["da provare"]},{"name":"pappare","tags":[],"filters":["brunch e colazioni"],"coordinates":{"latitude":44.494757,"longitude":11.3465249999999}},{"name":"pappare' bologna","filters":["vegan friendly"],"tags":[],"coordinates":{"latitude":44.494757,"longitude":11.346525}},{"coordinates":{"latitude":44.4755956,"longitude":11.3427982000001},"filters":[],"name":"pepperoni","tags":["pizza"]},{"name":"pescaria","filters":["all'aperto"],"coordinates":{"latitude":44.4965178,"longitude":11.3390936},"tags":[]},{"tags":["etnico"],"filters":["vegan friendly"],"coordinates":{"latitude":44.4967278,"longitude":11.3455744},"name":"piedra del sol"},{"filters":[],"name":"pistamentuccia - cucina romana","coordinates":{"latitude":44.4953727,"longitude":11.3377278},"tags":[]},{"name":"pistamentuccia - pizza al taglio romana","coordinates":{"latitude":44.4988893,"longitude":11.3410623},"filters":["pizza al taglio"],"tags":[]},{"coordinates":{"latitude":44.496723,"longitude":11.347479},"filters":["pizza al taglio"],"name":"pizzartist - via marsala","tags":[]},{"filters":["vineria"],"coordinates":{"latitude":44.4962922,"longitude":11.3361391999999},"tags":[],"name":"porcomondo salumi e vino"},{"coordinates":{"latitude":44.5122731,"longitude":11.3890095},"tags":[],"filters":["vegan friendly","da provare"],"name":"porta pazienza"},{"coordinates":{"latitude":44.4839234,"longitude":11.3644335},"name":"principe","filters":["aperitivo"],"tags":[]},{"tags":[],"coordinates":{"latitude":44.489718,"longitude":11.297118},"name":"pub birreria la locanda","filters":["pub"]},{"coordinates":{"latitude":44.4933879,"longitude":11.3355636},"filters":["vegan friendly"],"tags":["pizza"],"name":"pummà bologna"},{"coordinates":{"latitude":44.5009072,"longitude":11.3577483},"filters":["vegan friendly"],"tags":[],"name":"ranzani 13"},{"filters":[],"coordinates":{"latitude":44.5009414,"longitude":11.3578494999999},"tags":["pizza"],"name":"ranzani 13 bologna"},{"name":"ranzani13, bologna","filters":["birra artigianale"],"tags":[],"coordinates":{"latitude":44.5009413,"longitude":11.3578363}},{"tags":[],"coordinates":{"latitude":44.4963138,"longitude":11.3384407999999},"filters":["pizza al taglio"],"name":"ranzanino"},{"coordinates":{"latitude":44.4875853,"longitude":11.3479876},"filters":["vegan friendly"],"name":"raparossa gastrobistronomia","tags":[]},{"name":"re crudo","coordinates":{"latitude":44.4994838,"longitude":11.3351617},"tags":[],"filters":["da provare"]},{"coordinates":{"latitude":44.4851089,"longitude":11.3395879},"tags":[],"filters":["romantico","cocktail"],"name":"re sole bistrot"},{"name":"ristorante africano adal","coordinates":{"latitude":44.5145,"longitude":11.3508864},"filters":["vegan friendly"],"tags":[]},{"tags":["etnico"],"coordinates":{"latitude":44.4984763,"longitude":11.3361805},"filters":[],"name":"ristorante higashi"},{"tags":["etnico"],"name":"ristorante india","coordinates":{"latitude":44.496699,"longitude":11.339212},"filters":[]},{"tags":[],"coordinates":{"latitude":44.4945418,"longitude":11.3376868},"filters":["vegan friendly"],"name":"ristorante libra antiaging italian food"},{"filters":["da provare"],"name":"ristorante libra cucina evolution","coordinates":{"latitude":44.4945418,"longitude":11.3376868},"tags":[]},{"name":"ristorante pars","tags":[],"filters":["vegan friendly"],"coordinates":{"latitude":44.5091484,"longitude":11.3538445}},{"name":"ristorante pizzeria pepperoni","coordinates":{"latitude":44.4759677,"longitude":11.343086},"filters":["vegan friendly"],"tags":[]},{"tags":[],"coordinates":{"latitude":44.5131018,"longitude":11.3433371},"name":"ristorante senafe","filters":["vegan friendly"]},{"tags":[],"filters":["vegan friendly"],"coordinates":{"latitude":44.4973242,"longitude":11.3453486},"name":"ristorante singapore asian fusion"},{"name":"ruggine","tags":[],"filters":["all'aperto"],"coordinates":{"latitude":44.4930618,"longitude":11.3479748}},{"tags":[],"coordinates":{"latitude":44.4972142,"longitude":11.3483701},"filters":["da provare"],"name":"sale grosso"},{"coordinates":{"latitude":44.4939186,"longitude":11.3520953},"filters":["cocktail","all'aperto","aperitivo"],"name":"sartoria gastronomica","tags":[]},{"name":"sbando cucinotto e cantina","tags":[],"coordinates":{"latitude":44.5102848,"longitude":11.3434},"filters":["aperitivo","vineria"]},{"filters":[],"tags":["pizza"],"name":"scalinatella ristorante pizzeria bologna","coordinates":{"latitude":44.495141,"longitude":11.3443070000001}},{"coordinates":{"latitude":44.495331,"longitude":11.323878},"name":"seijo","filters":["da provare"],"tags":[]},{"coordinates":{"latitude":44.4909628,"longitude":11.338651},"filters":[],"tags":["etnico"],"name":"sentaku gyoza bar"},{"coordinates":{"latitude":44.498351,"longitude":11.3359557},"tags":["etnico"],"name":"sentaku ramen bar","filters":["vegan friendly"]},{"name":"seta sushi lab","tags":["etnico"],"coordinates":{"latitude":44.4929046,"longitude":11.3485803},"filters":[]},{"name":"sette calici","filters":["da provare"],"tags":[],"coordinates":{"latitude":44.5001919,"longitude":11.3588825}},{"name":"sette tavoli","tags":[],"coordinates":{"latitude":44.4888802,"longitude":11.3482924},"filters":["da provare"]},{"coordinates":{"latitude":44.4933333,"longitude":11.3602778},"tags":[],"name":"sicilyn, gourmet sicilian - japanese","filters":["da provare"]},{"filters":["all'aperto","vineria"],"coordinates":{"latitude":44.4939938,"longitude":11.3435512},"tags":[],"name":"signorvino"},{"filters":[],"name":"singapore asian fusion","coordinates":{"latitude":44.4973242,"longitude":11.3453486},"tags":["etnico"]},{"coordinates":{"latitude":44.5016184,"longitude":11.3310549},"name":"soon - ristorante coreano","tags":[],"filters":["da provare"]},{"name":"storiedipinte savena","coordinates":{"latitude":44.4692365,"longitude":11.4108532},"tags":[],"filters":["da provare"]},{"name":"sushi corner bologna (mercato delle erbe)","coordinates":{"latitude":44.495746,"longitude":11.338024},"filters":[],"tags":["etnico"]},{"coordinates":{"latitude":44.4996503,"longitude":11.3332928},"tags":[],"name":"tana del luppolo","filters":["birra artigianale"]},{"filters":["da provare"],"tags":["pizza"],"coordinates":{"latitude":44.4929762,"longitude":11.3410924},"name":"the gallery pizzart food & drink"},{"coordinates":{"latitude":44.4895652,"longitude":11.3491411},"tags":[],"name":"the grape brotherhood","filters":["da provare"]},{"coordinates":{"latitude":44.497353,"longitude":11.3323182},"filters":[],"name":"trattoria da me","tags":[]},{"coordinates":{"latitude":44.4984689,"longitude":11.3451273000001},"filters":["trattoria"],"tags":[],"name":"trattoria dal biassanot"},{"filters":["da provare"],"name":"trattoria di via serra","tags":[],"coordinates":{"latitude":44.5094444,"longitude":11.3455556}},{"coordinates":{"latitude":44.4882347,"longitude":11.3489731},"tags":[],"name":"tricheco","filters":[]},{"filters":["vegan friendly","all'aperto"],"name":"tricheco osteria","tags":[],"coordinates":{"latitude":44.4882347,"longitude":11.3489731}},{"coordinates":{"latitude":44.4989803,"longitude":11.3433054},"tags":[],"filters":["all'aperto"],"name":"twinside"},{"coordinates":{"latitude":44.4974458,"longitude":11.3462072},"filters":["vegan friendly"],"tags":[],"name":"uno caffé olistico"},{"name":"velluto botanique eclectique","tags":[],"filters":["da provare"],"coordinates":{"latitude":44.4926558,"longitude":11.3454769}},{"coordinates":{"latitude":44.492416,"longitude":11.3422087},"name":"vicolo colombina","tags":[],"filters":["da provare"]},{"filters":["all'aperto","vineria"],"coordinates":{"latitude":44.4930074,"longitude":11.3471804},"tags":[],"name":"vineria favalli"},{"filters":["vineria"],"tags":[],"name":"vinologico","coordinates":{"latitude":44.499253,"longitude":11.3350421}},{"coordinates":{"latitude":44.5020871,"longitude":11.3319676},"name":"vivo vincenzo vottero ristorarte","filters":["da provare"],"tags":[]},{"coordinates":{"latitude":44.4949226,"longitude":11.3466558},"filters":["da provare"],"tags":[],"name":"wasabi"},{"tags":[],"name":"welldone burger","filters":["vegan friendly"],"coordinates":{"latitude":44.4937203,"longitude":11.3456913}},{"tags":[],"coordinates":{"latitude":44.4927334,"longitude":11.3665071},"name":"wolf","filters":["vegan friendly","pub"]},{"coordinates":{"latitude":44.4953201,"longitude":11.343923},"name":"yoma","filters":[],"tags":["etnico"]},{"name":"yoshi ramen","coordinates":{"latitude":44.4961338,"longitude":11.3363326},"tags":["etnico"],"filters":["vegan friendly"]},{"tags":["etnico"],"filters":["vegan friendly"],"coordinates":{"latitude":44.507738,"longitude":11.342311},"name":"yuzuya"},{"coordinates":{"latitude":44.4953517,"longitude":11.3169376},"tags":[],"name":"zampa & osvaldo","filters":["vineria"]},{"tags":[],"coordinates":{"latitude":44.4955902,"longitude":11.333033},"filters":["vegan friendly","all'aperto"],"name":"zapap bologna"},{"tags":[],"coordinates":{"latitude":44.4955902,"longitude":11.333033},"filters":["birra artigianale"],"name":"zapap pratello"},{"filters":["vegan friendly"],"coordinates":{"latitude":44.5037422,"longitude":11.3379517},"name":"zenzero bologna","tags":[]},{"coordinates":{"latitude":44.5031667,"longitude":11.3337444},"filters":["da provare"],"name":"zushi","tags":[]}]